[
  {
    "id": 1,
    "name": "Paris",
    "latitude": 48.8566,
    "longitude": 2.3522
  },
  {
    "id": 2,
    "name": "Marseille",
    "latitude": 43.2965,
    "longitude": 5.3698
  },
  {
    "id": 3,
    "name": "Lyon",
    "latitude": 45.7640,
    "longitude": 4.8357
  },
  {
    "id": 4,
    "name": "Toulouse",
    "latitude": 43.6047,
    "longitude": 1.4442
  },
  {
    "id": 5,
    "name": "Nice",
    "latitude": 43.7102,
    "longitude": 7.2620
  },
  {
    "id": 6,
    "name": "Nantes",
    "latitude": 47.2184,
    "longitude": -1.5536
  },
  {
    "id": 7,
    "name": "Montpellier",
    "latitude": 43.6108,
    "longitude": 3.8767
  },
  {
    "id": 8,
    "name": "Strasbourg",
    "latitude": 48.5734,
    "longitude": 7.7521
  },
  {
    "id": 9,
    "name": "Bordeaux",
    "latitude": 44.8378,
    "longitude": -0.5792
  },
  {
    "id": 10,
    "name": "Lille",
    "latitude": 50.6292,
    "longitude": 3.0573
  }
]
