[
  {
    "id": 1,
    "name": "Paris",
    "latitude": 48.8566,
    "longitude": 2.3522,
    "aqi_station": "paris"
  },
  {
    "id": 2,
    "name": "Marseille",
    "latitude": 43.2965,
    "longitude": 5.3698,
    "aqi_station": "marseille"
  },
  {
    "id": 3,
    "name": "Lyon",
    "latitude": 45.7640,
    "longitude": 4.8357,
    "aqi_station": "france/rhonealpes/rhone/lyon-centre"
  },
  {
    "id": 4,
    "name": "Toulouse",
    "latitude": 43.6047,
    "longitude": 1.4442,
    "aqi_station": "toulouse"
  },
  {
    "id": 5,
    "name": "Nice",
    "latitude": 43.7102,
    "longitude": 7.2620,
    "aqi_station": "nice"
  },
  {
    "id": 6,
    "name": "Nantes",
    "latitude": 47.2184,
    "longitude": -1.5536,
    "aqi_station": "nantes"
  },
  {
    "id": 7,
    "name": "Montpellier",
    "latitude": 43.6108,
    "longitude": 3.8767,
    "aqi_station": "montpellier"
  },
  {
    "id": 8,
    "name": "Strasbourg",
    "latitude": 48.5734,
    "longitude": 7.7521,
    "aqi_station": "strasbourg"
  },
  {
    "id": 9,
    "name": "Bordeaux",
    "latitude": 44.8378,
    "longitude": -0.5792,
    "aqi_station": "bordeaux"
  },
  {
    "id": 10,
    "name": "Lille",
    "latitude": 50.6292,
    "longitude": 3.0573,
    "aqi_station": "roubaix"
  }
]
